City_ID,City,Lat,Lng,Max Temp,Humidity,Cloudiness,Wind Speed,Country,Date
0,kostyantynivka,48.5277,37.7069,5.970000000000027,45,0,3.26,UA,2023-1-27
1,broome,42.2506,-75.833,0.5799999999999841,88,100,2.06,US,2023-1-27
2,arraial do cabo,-22.9661,-42.0278,30.069999999999993,74,20,2.06,BR,2023-1-27
3,castro,-24.7911,-50.0119,19.79000000000002,75,3,1.81,BR,2023-1-27
4,jalu,29.0331,21.5482,23.04000000000002,25,83,1.64,LY,2023-1-27
5,albany,42.6001,-73.9662,0.4700000000000273,85,83,1.38,US,2023-1-27
6,jamestown,42.097,-79.2353,-0.07999999999998408,73,100,4.63,US,2023-1-27
7,ostrovnoy,68.0531,39.5131,-3.1999999999999886,93,89,7.18,RU,2023-1-27
8,hobart,-42.8794,147.3294,24.069999999999993,49,20,5.66,AU,2023-1-27
9,baie-comeau,49.2168,-68.1489,-8.379999999999995,77,100,6.54,CA,2023-1-27
10,voh,-20.9667,164.7,27.980000000000018,90,76,2.32,NC,2023-1-27
11,ushuaia,-54.8,-68.3,8.660000000000025,84,94,2.0,AR,2023-1-27
12,oranjestad,12.524,-70.027,28.660000000000025,78,20,6.17,AW,2023-1-27
13,victoria,22.2855,114.1577,18.29000000000002,37,97,8.94,HK,2023-1-27
14,kavaratti,10.5669,72.642,30.05000000000001,73,2,3.06,IN,2023-1-27
15,pochutla,15.7432,-96.4661,23.05000000000001,56,0,1.66,MX,2023-1-27
16,mar del plata,-38.0023,-57.5575,25.279999999999973,93,84,1.79,AR,2023-1-27
17,port-gentil,-0.7193,8.7815,32.129999999999995,79,40,3.6,GA,2023-1-27
18,esperance,-33.8667,121.9,21.25,75,76,7.84,AU,2023-1-27
19,bahia blanca,-38.7196,-62.2724,20.439999999999998,100,0,3.6,AR,2023-1-27
20,busselton,-33.65,115.3333,21.20999999999998,55,0,8.39,AU,2023-1-27
21,alofi,-19.0595,-169.9187,27.089999999999975,94,40,1.03,NU,2023-1-27
22,tasiilaq,65.6145,-37.6368,-4.759999999999991,45,0,9.61,GL,2023-1-27
23,cayenne,4.9333,-52.3333,24.170000000000016,100,20,0.0,GF,2023-1-27
24,punta arenas,-53.15,-70.9167,13.20999999999998,76,75,2.57,CL,2023-1-27
25,nouadhibou,20.931,-17.0347,21.439999999999998,43,99,8.21,MR,2023-1-27
26,fairfield,41.2668,-73.3162,4.509999999999991,74,0,2.06,US,2023-1-27
27,severo-kurilsk,50.6789,156.125,2.6899999999999977,92,94,5.79,RU,2023-1-27
28,rikitea,-23.1203,-134.9692,28.79000000000002,76,100,5.67,PF,2023-1-27
29,torbay,47.6666,-52.7314,11.139999999999986,94,100,2.68,CA,2023-1-27
30,kapaa,22.0752,-159.319,22.329999999999984,73,20,4.12,US,2023-1-27
31,thompson,55.7435,-97.8558,-18.55000000000001,93,100,3.9,CA,2023-1-27
32,chapais,49.7834,-74.8492,-22.97,99,24,1.59,CA,2023-1-27
33,bengkulu,-3.8004,102.2655,29.430000000000007,79,100,5.98,ID,2023-1-27
34,peniche,39.3558,-9.3811,15.129999999999995,80,0,6.64,PT,2023-1-27
35,praia da vitoria,38.7333,-27.0667,18.00999999999999,75,54,6.81,PT,2023-1-27
36,eregli,37.5133,34.0467,17.00999999999999,28,98,3.79,TR,2023-1-27
37,rocha,-34.4833,-54.3333,27.75,74,5,3.42,UY,2023-1-27
38,kupang,-10.1667,123.5833,30.470000000000027,94,40,1.54,ID,2023-1-27
39,haines junction,60.7522,-137.5108,-4.75,93,99,1.61,CA,2023-1-27
40,tobolsk,58.2,68.2667,-3.8100000000000023,95,99,3.49,RU,2023-1-27
41,brandon,27.9378,-82.2859,13.720000000000027,79,0,4.47,US,2023-1-27
42,olafsvik,64.8945,-23.7142,4.610000000000014,73,72,21.08,IS,2023-1-27
43,east london,-33.0153,27.9116,31.670000000000016,61,0,3.6,ZA,2023-1-27
44,bonthe,7.5264,-12.505,33.110000000000014,64,27,1.52,SL,2023-1-27
45,ternate,0.8,127.4,29.45999999999998,86,100,2.85,ID,2023-1-27
46,aksu,41.1231,80.2644,-3.819999999999993,78,6,0.7,CN,2023-1-27
47,provideniya,64.3833,-173.3,-13.45999999999998,96,100,6.63,RU,2023-1-27
48,chuy,-33.6971,-53.4616,27.269999999999982,79,8,3.04,UY,2023-1-27
49,comodoro rivadavia,-45.8667,-67.5,18.25,49,36,5.38,AR,2023-1-27
50,bluff,-46.6,168.3333,14.910000000000025,64,7,1.75,NZ,2023-1-27
51,port alfred,-33.5906,26.891,28.810000000000002,81,10,2.24,ZA,2023-1-27
52,uinskoye,56.8817,56.5813,-1.9300000000000068,94,100,6.27,RU,2023-1-27
53,touros,-5.1989,-35.4608,31.360000000000014,66,8,4.28,BR,2023-1-27
54,hermanus,-34.4187,19.2345,29.70999999999998,61,0,5.89,ZA,2023-1-27
55,new norfolk,-42.7826,147.0587,23.870000000000005,49,7,3.58,AU,2023-1-27
56,hastings,50.8552,0.5729,10.810000000000002,81,88,8.4,GB,2023-1-27
57,saint george,37.1041,-113.5841,2.5600000000000023,73,0,2.06,US,2023-1-27
58,dolinsk,47.35,142.8,-15.810000000000002,96,2,2.61,RU,2023-1-27
59,nikolskoye,59.7035,30.7861,1.089999999999975,81,6,1.73,RU,2023-1-27
60,murray bridge,-35.1167,139.2667,32.77999999999997,24,59,3.21,AU,2023-1-27
61,kenai,60.5544,-151.2583,2.180000000000007,86,100,3.09,US,2023-1-27
62,namibe,-15.1961,12.1522,28.910000000000025,68,69,4.63,AO,2023-1-27
63,mataura,-46.1927,168.8643,9.769999999999982,88,3,0.61,NZ,2023-1-27
64,moron,-34.6534,-58.6198,27.00999999999999,68,75,8.75,AR,2023-1-27
65,sakleshpur,12.9667,75.7833,31.529999999999973,18,39,3.26,IN,2023-1-27
66,aars,56.804,9.5144,4.699999999999989,64,77,0.08,DK,2023-1-27
67,kodiak,57.79,-152.4072,-0.12000000000000455,86,20,2.57,US,2023-1-27
68,turukhansk,65.8167,87.9833,-11.449999999999989,95,100,6.19,RU,2023-1-27
69,ixtapa,20.7,-105.2,22.720000000000027,88,55,1.41,MX,2023-1-27
70,puerto colombia,10.9878,-74.9547,28.19999999999999,81,85,10.46,CO,2023-1-27
71,tiksi,71.6872,128.8694,-35.75999999999999,99,70,1.38,RU,2023-1-27
72,fortuna,40.5982,-124.1573,7.339999999999975,100,0,3.6,US,2023-1-27
73,slave lake,55.2834,-114.769,-0.8600000000000136,80,100,3.6,CA,2023-1-27
74,hasaki,35.7333,140.8333,6.600000000000023,87,100,0.93,JP,2023-1-27
75,lebu,-37.6167,-73.65,15.990000000000009,82,3,7.75,CL,2023-1-27
76,ancud,-41.8697,-73.8203,13.339999999999975,82,14,1.09,CL,2023-1-27
77,constitucion,-35.3333,-72.4167,17.170000000000016,69,0,2.23,CL,2023-1-27
78,avarua,-21.2078,-159.775,29.180000000000007,89,20,2.57,CK,2023-1-27
79,artesia,33.8658,-118.0831,18.629999999999995,57,0,2.57,US,2023-1-27
80,yar-sale,66.8333,70.8333,-2.9399999999999977,87,72,7.68,RU,2023-1-27
81,vaini,-21.2,-175.2,28.24000000000001,100,20,1.03,TO,2023-1-27
82,barrow,71.2906,-156.7887,-22.840000000000003,76,0,5.66,US,2023-1-27
83,bambous virieux,-20.3428,57.7575,32.29000000000002,70,75,3.6,MU,2023-1-27
84,hilo,19.7297,-155.09,25.529999999999973,88,75,2.57,US,2023-1-27
85,waipawa,-41.4122,175.5153,17.689999999999998,95,100,1.43,NZ,2023-1-27
86,port lincoln,-34.7333,135.8667,28.660000000000025,52,92,1.34,AU,2023-1-27
87,lorengau,-2.0226,147.2712,30.569999999999993,78,77,4.29,PG,2023-1-27
88,richards bay,-28.783,32.0377,32.389999999999986,57,49,4.82,ZA,2023-1-27
89,ambilobe,-13.2,49.05,33.579999999999984,64,86,3.64,MG,2023-1-27
90,port elizabeth,-33.918,25.5701,32.089999999999975,61,0,4.63,ZA,2023-1-27
91,salalah,17.0151,54.0924,28.19999999999999,65,75,3.6,OM,2023-1-27
92,atar,20.5169,-13.0499,25.54000000000002,13,85,4.65,MR,2023-1-27
93,samarai,-10.6167,150.6667,31.350000000000023,76,54,6.06,PG,2023-1-27
94,mehamn,71.0357,27.8492,4.1200000000000045,93,75,5.14,NO,2023-1-27
95,sao filipe,14.8961,-24.4956,26.600000000000023,68,82,1.87,CV,2023-1-27
96,ponta delgada,37.7333,-25.6667,16.55000000000001,71,75,3.09,PT,2023-1-27
97,puerto ayora,-0.7393,-90.3518,26.230000000000018,96,21,0.45,EC,2023-1-27
98,dikson,73.5069,80.5464,-13.839999999999975,91,100,7.1,RU,2023-1-27
99,koulikoro,14.0,-7.75,33.89999999999998,13,100,6.79,ML,2023-1-27
100,anadyr,64.75,177.4833,-10.569999999999993,78,100,12.0,RU,2023-1-27
101,chokurdakh,70.6333,147.9167,-29.340000000000003,99,26,3.55,RU,2023-1-27
102,kahului,20.8947,-156.47,25.160000000000025,91,40,6.69,US,2023-1-27
103,ararangua,-28.9347,-49.4858,26.24000000000001,77,44,1.28,BR,2023-1-27
104,conde,-7.2597,-34.9075,30.850000000000023,74,40,3.6,BR,2023-1-27
105,tapejara,-28.0681,-52.0139,25.360000000000014,68,42,3.51,BR,2023-1-27
106,russell,32.3502,-85.1999,4.75,93,0,0.0,US,2023-1-27
107,broken hill,-31.95,141.4333,32.420000000000016,14,16,4.4,AU,2023-1-27
108,pisco,-13.7,-76.2167,23.180000000000007,88,99,1.03,PE,2023-1-27
109,cabo san lucas,22.8909,-109.9124,19.05000000000001,55,100,1.83,MX,2023-1-27
110,fengzhen,40.4394,113.1536,-9.949999999999989,47,45,5.29,CN,2023-1-27
111,dalbandin,28.8947,64.4101,15.629999999999995,18,100,3.64,PK,2023-1-27
112,bethel,41.3712,-73.414,4.079999999999984,77,0,0.0,US,2023-1-27
113,havoysund,70.9963,24.6622,4.279999999999973,97,100,12.9,NO,2023-1-27
114,tuktoyaktuk,69.4541,-133.0374,-30.189999999999998,99,9,0.45,CA,2023-1-27
115,cape town,-33.9258,18.4232,29.870000000000005,52,0,3.58,ZA,2023-1-27
116,carlyle,38.6103,-89.3726,0.4200000000000159,80,4,1.79,US,2023-1-27
117,piddig,18.1655,120.7175,26.899999999999977,64,40,8.23,PH,2023-1-27
118,klaksvik,62.2266,-6.589,9.660000000000025,74,100,11.97,FO,2023-1-27
119,awbari,26.5921,12.7805,17.95999999999998,28,9,8.09,LY,2023-1-27
120,soledad,10.9184,-74.7646,28.220000000000027,78,0,5.14,CO,2023-1-27
121,sechura,-5.5569,-80.8222,24.600000000000023,85,64,2.38,PE,2023-1-27
122,tambo,-14.8,-73.9167,5.350000000000023,90,100,1.12,PE,2023-1-27
123,port hedland,-20.3167,118.5667,33.18000000000001,79,40,5.66,AU,2023-1-27
124,bandarbeyla,9.4942,50.8122,28.810000000000002,65,54,6.49,SO,2023-1-27
125,kawalu,-7.3817,108.2082,26.970000000000027,93,100,1.18,ID,2023-1-27
126,saldanha,-33.0117,17.9442,23.439999999999998,75,21,7.4,ZA,2023-1-27
127,atuona,-9.8,-139.0333,28.819999999999993,80,46,7.73,PF,2023-1-27
128,mabaruma,8.2,-59.7833,23.779999999999973,89,56,1.21,GY,2023-1-27
129,isangel,-19.55,169.2667,30.04000000000002,85,6,3.45,VU,2023-1-27
130,whitecourt,54.1502,-115.6855,1.1999999999999886,86,100,3.71,CA,2023-1-27
131,bredasdorp,-34.5322,20.0403,31.970000000000027,38,0,6.23,ZA,2023-1-27
132,lucena,13.9314,121.6172,27.639999999999986,93,100,7.09,PH,2023-1-27
133,saint-paul,-21.0096,55.2707,32.20999999999998,77,87,2.55,RE,2023-1-27
134,todos santos,23.45,-110.2167,18.519999999999982,67,100,1.74,MX,2023-1-27
135,nome,64.5011,-165.4064,-8.430000000000007,92,100,11.32,US,2023-1-27
136,ljungby,56.8332,13.9408,3.8000000000000114,63,6,1.59,SE,2023-1-27
137,muisne,0.6,-80.0333,27.589999999999975,88,100,2.81,EC,2023-1-27
138,talnakh,69.4865,88.3972,-13.95999999999998,96,100,3.92,RU,2023-1-27
139,nijar,36.9665,-2.206,15.180000000000007,35,0,2.57,ES,2023-1-27
140,jacareacanga,-6.2222,-57.7528,24.810000000000002,99,100,0.34,BR,2023-1-27
141,matagami,49.7502,-77.6328,-20.789999999999992,77,100,1.54,CA,2023-1-27
142,te anau,-45.4167,167.7167,10.980000000000018,85,1,1.91,NZ,2023-1-27
143,ribeira grande,38.5167,-28.7,19.370000000000005,59,40,7.2,PT,2023-1-27
144,viedma,-40.8135,-62.9967,23.110000000000014,49,0,3.01,AR,2023-1-27
145,nanortalik,60.1432,-45.2371,-1.0500000000000114,88,100,8.59,GL,2023-1-27
146,fujinomiya,35.2167,138.6167,3.4700000000000273,92,86,1.35,JP,2023-1-27
147,gimli,50.6336,-96.9907,-10.839999999999975,85,100,7.72,CA,2023-1-27
148,vaitape,-16.5167,-151.75,30.100000000000023,77,27,5.61,PF,2023-1-27
149,manturovo,58.3353,44.7619,3.0600000000000023,99,100,3.0,RU,2023-1-27
150,taltal,-25.4,-70.4833,22.680000000000007,81,61,0.68,CL,2023-1-27
151,baculin,7.4525,126.5842,28.80000000000001,88,76,1.3,PH,2023-1-27
152,tabora,-5.0167,32.8,28.50999999999999,61,100,2.44,TZ,2023-1-27
153,ha giang,22.8333,104.9833,16.819999999999993,52,81,0.76,VN,2023-1-27
154,waingapu,-9.6567,120.2641,30.120000000000005,84,97,2.9,ID,2023-1-27
155,alta floresta,-9.8756,-56.0861,24.70999999999998,99,100,0.69,BR,2023-1-27
156,faanui,-16.4833,-151.75,30.089999999999975,77,26,5.6,PF,2023-1-27
157,lompoc,34.6391,-120.4579,14.769999999999982,81,0,4.92,US,2023-1-27
158,cherskiy,68.75,161.3,-26.039999999999992,88,23,1.76,RU,2023-1-27
159,tiszadada,48.0333,21.25,5.529999999999973,60,100,1.87,HU,2023-1-27
160,clyde river,70.4692,-68.5914,-22.72,76,100,8.75,CA,2023-1-27
161,longyearbyen,78.2186,15.6401,-7.939999999999998,62,20,8.75,SJ,2023-1-27
162,mogadishu,2.0371,45.3438,30.649999999999977,65,2,10.1,SO,2023-1-27
163,jaciara,-15.9653,-54.9683,26.129999999999995,91,100,0.52,BR,2023-1-27
164,nantucket,41.2835,-70.0995,5.2099999999999795,66,0,4.12,US,2023-1-27
165,saint-philippe,-21.3585,55.7679,31.920000000000016,84,99,1.41,RE,2023-1-27
166,minot,48.2325,-101.2963,-5.730000000000018,79,0,7.2,US,2023-1-27
167,kvarkeno,52.0833,59.725,-5.649999999999977,83,28,6.33,RU,2023-1-27
168,ventspils,57.3894,21.5606,3.1100000000000136,93,75,1.54,LV,2023-1-27
169,teguise,29.0605,-13.564,19.269999999999982,55,75,5.66,ES,2023-1-27
170,walvis bay,-22.9575,14.5053,24.310000000000002,72,62,4.35,NA,2023-1-27
171,la rioja,42.25,-2.5,4.029999999999973,92,100,6.06,ES,2023-1-27
172,keetmanshoop,-26.5833,18.1333,39.14999999999998,19,38,4.83,NA,2023-1-27
173,okhotsk,59.3833,143.3,-12.120000000000005,77,100,6.66,RU,2023-1-27
174,grindavik,63.8424,-22.4338,5.410000000000025,64,75,16.98,IS,2023-1-27
175,tarakan,3.3,117.6333,29.870000000000005,78,20,1.54,ID,2023-1-27
176,qaanaaq,77.484,-69.3632,-19.370000000000005,85,100,1.27,GL,2023-1-27
177,montes altos,-5.8333,-47.0667,26.05000000000001,90,95,1.37,BR,2023-1-27
178,victor harbor,-35.5667,138.6167,32.420000000000016,53,59,3.15,AU,2023-1-27
179,maridi,4.9158,29.4742,39.25999999999999,13,76,3.34,SS,2023-1-27
180,kirovskiy,45.0917,133.5136,-23.819999999999993,100,69,0.7,RU,2023-1-27
181,butaritari,3.0707,172.7902,29.870000000000005,82,61,7.57,KI,2023-1-27
182,lhokseumawe,5.1801,97.1507,28.860000000000014,86,82,3.12,ID,2023-1-27
183,hithadhoo,-0.6,73.0833,30.54000000000002,72,80,1.44,MV,2023-1-27
184,san cristobal,7.7669,-72.225,20.25,81,100,0.62,VE,2023-1-27
185,narsaq,60.9167,-46.05,-3.730000000000018,71,100,7.49,GL,2023-1-27
186,tessalit,20.1986,1.0114,22.629999999999995,13,24,5.07,ML,2023-1-27
187,yulara,-25.2406,130.9889,32.110000000000014,45,100,4.24,AU,2023-1-27
188,saskylakh,71.9167,114.0833,-34.91999999999999,94,23,6.1,RU,2023-1-27
189,khasan,42.4308,130.6434,-9.579999999999984,57,27,9.04,RU,2023-1-27
190,codrington,-38.2667,141.9667,19.689999999999998,72,0,2.75,AU,2023-1-27
191,dalmeny,52.3334,-106.7679,-4.0,86,100,6.17,CA,2023-1-27
192,baruun-urt,46.6806,113.2792,-16.97999999999999,82,16,3.67,MN,2023-1-27
193,tucupita,9.0622,-62.051,23.370000000000005,91,41,1.24,VE,2023-1-27
194,upernavik,72.7868,-56.1549,-14.25,91,100,2.33,GL,2023-1-27
195,le pradet,43.1066,6.0172,14.980000000000018,62,0,2.57,FR,2023-1-27
196,akcaabat,41.0212,39.5715,16.079999999999984,58,0,4.12,TR,2023-1-27
197,matamoros,25.5333,-103.25,10.20999999999998,62,20,4.63,MX,2023-1-27
198,mandalgovi,45.7625,106.2708,-11.949999999999989,71,0,4.54,MN,2023-1-27
199,natal,-5.795,-35.2094,30.50999999999999,83,40,3.09,BR,2023-1-27
200,olyka,50.7186,25.8125,3.1100000000000136,80,100,2.95,UA,2023-1-27
201,shingu,33.7333,135.9833,6.970000000000027,78,47,6.54,JP,2023-1-27
202,khatanga,71.9667,102.5,-23.50999999999999,81,96,7.26,RU,2023-1-27
203,dingle,10.9995,122.6711,27.870000000000005,93,41,3.29,PH,2023-1-27
204,kolyshley,52.7005,44.5367,-2.6100000000000136,86,62,3.37,RU,2023-1-27
205,north bend,43.4065,-124.2243,7.6299999999999955,93,100,0.0,US,2023-1-27
206,dhidhdhoo,6.8833,73.1,30.25,74,6,3.74,MV,2023-1-27
207,povenets,62.8487,34.8262,-6.0400000000000205,92,17,1.75,RU,2023-1-27
208,srednekolymsk,67.45,153.6833,-37.27000000000001,99,45,2.79,RU,2023-1-27
209,ulaangom,49.9811,92.0667,-23.27000000000001,99,96,1.13,MN,2023-1-27
210,sorong,-0.8833,131.25,30.25999999999999,79,100,3.27,ID,2023-1-27
211,barra do garcas,-15.89,-52.2567,25.319999999999993,96,100,2.15,BR,2023-1-27
212,ahipara,-35.1667,173.1667,22.99000000000001,95,87,2.66,NZ,2023-1-27
213,neustrelitz,53.3667,13.0833,6.430000000000007,76,56,5.53,DE,2023-1-27
214,porto santo,33.072,-16.3415,19.360000000000014,72,40,6.69,PT,2023-1-27
215,cidreira,-30.1811,-50.2056,28.879999999999995,75,34,2.54,BR,2023-1-27
216,vao,-22.6667,167.4833,28.689999999999998,74,63,5.6,NC,2023-1-27
217,san pedro,14.35,121.0167,28.720000000000027,78,75,2.06,PH,2023-1-27
218,kenitra,34.261,-6.5802,17.569999999999993,80,65,2.18,MA,2023-1-27
219,tisul,55.7611,88.3122,-4.319999999999993,86,100,10.2,RU,2023-1-27
220,naron,43.5167,-8.1528,14.589999999999975,72,100,6.43,ES,2023-1-27
221,liverpool,53.4106,-2.9779,9.029999999999973,92,75,3.09,GB,2023-1-27
222,itoman,26.1247,127.6694,16.160000000000025,67,75,16.98,JP,2023-1-27
223,evensk,61.95,159.2333,-15.370000000000005,81,100,9.08,RU,2023-1-27
224,helong,42.5397,128.9972,-14.789999999999992,78,54,4.22,CN,2023-1-27
225,guajara,-2.9667,-57.6667,25.600000000000023,94,99,0.54,BR,2023-1-27
226,mahebourg,-20.4081,57.7,32.31,70,75,3.6,MU,2023-1-27
227,yerbogachen,61.2767,108.0108,-16.25999999999999,98,99,3.09,RU,2023-1-27
228,kaitangata,-46.2817,169.8464,12.829999999999984,76,15,1.86,NZ,2023-1-27
229,polohy,47.4844,36.2536,7.980000000000018,40,1,3.52,UA,2023-1-27
230,carnarvon,-24.8667,113.6333,28.139999999999986,65,0,11.52,AU,2023-1-27
231,ailigandi,9.2333,-78.0167,28.089999999999975,85,99,4.9,PA,2023-1-27
232,los llanos de aridane,28.6585,-17.9182,19.00999999999999,68,75,8.23,ES,2023-1-27
233,pevek,69.7008,170.3133,-22.539999999999992,89,27,1.21,RU,2023-1-27
234,champerico,14.3,-91.9167,27.370000000000005,74,38,1.85,GT,2023-1-27
235,bonavista,48.6499,-53.1147,8.139999999999986,90,100,12.19,CA,2023-1-27
236,norman wells,65.282,-126.8329,-14.830000000000013,78,100,6.69,CA,2023-1-27
237,phalaborwa,-23.943,31.1411,37.75,21,0,3.98,ZA,2023-1-27
238,katsuura,35.1333,140.3,7.449999999999989,91,100,1.24,JP,2023-1-27
239,geraldton,-28.7667,114.6,25.379999999999995,78,40,11.32,AU,2023-1-27
240,kadoma,34.7333,135.5833,8.139999999999986,66,40,4.12,JP,2023-1-27
241,sao felix do xingu,-6.6447,-51.995,25.389999999999986,98,100,0.22,BR,2023-1-27
242,seydi,39.4816,62.9137,5.730000000000018,52,0,2.15,TM,2023-1-27
243,nemuro,43.3236,145.575,-1.7200000000000273,61,37,1.1,JP,2023-1-27
244,luderitz,-26.6481,15.1594,27.019999999999982,57,3,6.95,NA,2023-1-27
245,ust-kut,56.7938,105.7672,-2.3000000000000114,90,100,5.53,RU,2023-1-27
246,san policarpo,12.1791,125.5072,29.29000000000002,87,94,5.48,PH,2023-1-27
247,farafangana,-22.8167,47.8333,29.54000000000002,89,100,3.26,MG,2023-1-27
248,palmer,42.1584,-72.3287,1.3799999999999955,75,0,0.0,US,2023-1-27
249,oksfjord,70.2396,22.3479,7.25,92,100,5.53,NO,2023-1-27
250,pacific grove,36.6177,-121.9166,15.050000000000011,86,0,3.09,US,2023-1-27
251,manono,-7.3,27.4167,31.45999999999998,66,96,0.99,CD,2023-1-27
252,biak,-0.9131,122.8766,28.470000000000027,83,93,2.56,ID,2023-1-27
253,deputatskiy,69.3,139.9,-32.78,98,19,0.93,RU,2023-1-27
254,lucea,18.451,-78.1736,26.069999999999993,76,81,4.19,JM,2023-1-27
255,yongan,39.6957,113.6871,-8.470000000000027,42,4,5.71,CN,2023-1-27
256,yellowknife,62.456,-114.3525,-28.210000000000008,67,18,3.58,CA,2023-1-27
257,seoul,37.5683,126.9778,-4.160000000000025,53,3,5.86,KR,2023-1-27
258,bathsheba,13.2167,-59.5167,27.49000000000001,69,20,3.6,BB,2023-1-27
259,airai,-8.9266,125.4092,20.339999999999975,95,99,0.53,TL,2023-1-27
260,kununurra,-15.7667,128.7333,31.139999999999986,89,99,0.0,AU,2023-1-27
261,georgetown,5.4112,100.3354,32.170000000000016,71,20,2.57,MY,2023-1-27
262,ornskoldsvik,63.2909,18.7153,0.6800000000000068,86,75,5.14,SE,2023-1-27
263,brae,60.3964,-1.353,10.449999999999989,89,100,12.3,GB,2023-1-27
264,aljezur,37.3191,-8.8033,13.490000000000009,52,0,4.6,PT,2023-1-27
265,san quintin,30.4833,-115.95,15.449999999999989,38,76,1.2,MX,2023-1-27
266,erenhot,43.6475,111.9767,-10.060000000000002,65,3,7.72,CN,2023-1-27
267,quatre cocos,-20.2078,57.7625,32.20999999999998,79,100,5.08,MU,2023-1-27
268,naze,28.3667,129.4833,12.660000000000025,70,100,12.25,JP,2023-1-27
269,angoram,-4.0625,144.0661,26.660000000000025,97,65,1.15,PG,2023-1-27
270,oktyabrskoye,43.0645,44.7417,-1.7699999999999818,100,100,2.0,RU,2023-1-27
271,linxi,39.7,118.4333,-2.160000000000025,25,12,3.12,CN,2023-1-27
272,batticaloa,7.7102,81.6924,28.850000000000023,79,100,5.14,LK,2023-1-27
273,san patricio,28.017,-97.5169,17.069999999999993,67,84,2.95,US,2023-1-27
274,polson,47.6936,-114.1632,4.689999999999998,79,100,1.45,US,2023-1-27
275,safford,32.834,-109.7076,7.660000000000025,68,0,2.06,US,2023-1-27
276,izhma,65.0083,53.9113,-4.160000000000025,93,97,3.16,RU,2023-1-27
277,alim,9.5649,122.4876,29.689999999999998,85,98,1.92,PH,2023-1-27
278,luanda,-8.8368,13.2343,30.149999999999977,78,75,2.57,AO,2023-1-27
279,knysna,-34.0363,23.0471,29.920000000000016,60,5,4.15,ZA,2023-1-27
280,glendive,47.1053,-104.7125,1.9399999999999977,86,100,3.6,US,2023-1-27
281,pangnirtung,66.1451,-65.7125,-28.210000000000008,88,97,3.12,CA,2023-1-27
282,kruisfontein,-34.0033,24.7314,30.860000000000014,43,8,5.92,ZA,2023-1-27
283,atagay,55.1033,99.3875,1.170000000000016,57,100,6.06,RU,2023-1-27
284,diego de almagro,-26.3667,-70.05,19.889999999999986,65,11,0.74,CL,2023-1-27
285,sitka,57.0531,-135.33,8.089999999999975,87,100,4.12,US,2023-1-27
286,teluknaga,-6.0989,106.6381,31.170000000000016,83,40,1.54,ID,2023-1-27
287,kargat,55.1956,80.2811,-5.610000000000014,92,100,7.67,RU,2023-1-27
288,saint-augustin,51.226,-58.6502,-1.4399999999999977,80,100,11.02,CA,2023-1-27
289,two rivers,44.1539,-87.5693,-5.189999999999998,86,20,4.12,US,2023-1-27
290,kavieng,-2.5744,150.7967,30.930000000000007,77,99,4.58,PG,2023-1-27
291,chapadinha,-3.7417,-43.3603,26.75999999999999,92,87,1.96,BR,2023-1-27
292,san vicente,-26.6167,-54.1333,28.50999999999999,43,4,1.26,AR,2023-1-27
293,toamasina,-18.1667,49.3833,33.14999999999998,74,20,5.14,MG,2023-1-27
294,payson,40.0444,-111.7321,2.180000000000007,86,100,2.06,US,2023-1-27
295,camocim,-2.9022,-40.8411,27.910000000000025,83,79,3.59,BR,2023-1-27
296,prabumulih,-3.45,104.25,28.149999999999977,93,100,1.44,ID,2023-1-27
297,puerto carreno,6.189,-67.4859,25.139999999999986,88,70,4.12,CO,2023-1-27
298,igurubi,-4.0,33.7,31.5,44,90,1.63,TZ,2023-1-27
299,grajau,-5.8194,-46.1386,26.379999999999995,92,97,1.27,BR,2023-1-27
300,san miguel el alto,21.0167,-102.35,12.439999999999998,58,1,2.05,MX,2023-1-27
301,chittur,10.7,76.75,35.89999999999998,47,1,1.79,IN,2023-1-27
302,puerto escondido,15.85,-97.0667,25.319999999999993,55,0,3.09,MX,2023-1-27
303,athenry,53.2964,-8.7431,8.160000000000025,80,52,1.36,IE,2023-1-27
304,marawi,7.9986,124.2928,24.389999999999986,98,100,1.07,PH,2023-1-27
305,nizhneangarsk,55.7833,109.55,-12.360000000000014,96,100,1.22,RU,2023-1-27
306,zajecar,43.9036,22.2641,6.170000000000016,100,100,1.41,RS,2023-1-27
307,colares,38.7992,-9.4469,15.95999999999998,65,20,6.71,PT,2023-1-27
308,bilma,18.6853,12.9164,33.089999999999975,8,51,2.99,NE,2023-1-27
309,nago,26.5881,127.9761,16.180000000000007,69,100,12.56,JP,2023-1-27
310,timberlake,37.3207,-79.2575,6.1299999999999955,48,75,2.06,US,2023-1-27
311,inuvik,68.3499,-133.7218,-29.319999999999993,99,46,1.99,CA,2023-1-27
312,talcahuano,-36.7167,-73.1167,15.970000000000027,82,0,2.06,CL,2023-1-27
313,muros,42.7762,-9.0603,15.279999999999973,65,59,5.6,ES,2023-1-27
314,tilichiki,60.4667,166.1,-20.03,93,98,3.91,RU,2023-1-27
315,janauba,-15.8025,-43.3089,25.129999999999995,88,100,1.17,BR,2023-1-27
316,nyagan,62.1406,65.3936,-2.009999999999991,87,7,4.41,RU,2023-1-27
317,kasongo,-4.45,26.6667,32.870000000000005,53,94,1.53,CD,2023-1-27
318,cap malheureux,-19.9842,57.6142,30.629999999999995,84,100,1.34,MU,2023-1-27
319,vardo,70.3705,31.1107,0.13999999999998636,86,75,7.2,NO,2023-1-27
320,kandrian,-6.2167,149.55,28.79000000000002,88,61,2.69,PG,2023-1-27
321,ponta do sol,32.6667,-17.1,21.319999999999993,71,19,2.34,PT,2023-1-27
322,igarka,67.4667,86.5833,-13.939999999999998,96,100,5.69,RU,2023-1-27
323,havre-saint-pierre,50.2334,-63.5986,-6.850000000000023,78,75,7.72,CA,2023-1-27
324,rognan,67.0953,15.3878,8.639999999999986,94,100,3.87,NO,2023-1-27
325,leh,34.1667,77.5833,-8.970000000000027,70,7,0.56,IN,2023-1-27
326,redcar,54.6166,-1.06,8.910000000000025,72,59,1.23,GB,2023-1-27
327,vadlapudi,14.3167,79.8,30.69999999999999,47,8,4.75,IN,2023-1-27
328,zhigansk,66.7697,123.3711,-45.41999999999999,99,56,2.46,RU,2023-1-27
329,marovoay,-16.1,46.6333,30.74000000000001,82,98,5.11,MG,2023-1-27
330,klisura,42.7,24.45,3.7799999999999727,96,100,1.78,BG,2023-1-27
331,meulaboh,4.1363,96.1285,27.19999999999999,89,100,2.74,ID,2023-1-27
332,iqaluit,63.7506,-68.5145,-30.0,75,0,2.06,CA,2023-1-27
333,ajdabiya,30.7554,20.2263,21.089999999999975,52,0,6.15,LY,2023-1-27
334,lisala,2.15,21.5167,34.5,41,100,1.55,CD,2023-1-27
335,jinchang,38.4953,102.1739,-4.259999999999991,33,2,0.77,CN,2023-1-27
336,qandala,11.472,49.8728,28.70999999999998,63,3,3.37,SO,2023-1-27
337,rundu,-17.9333,19.7667,34.19,31,40,4.51,NA,2023-1-27
338,rio grande city,26.3798,-98.8203,14.879999999999995,60,100,2.94,US,2023-1-27
339,aklavik,68.2191,-135.0107,-19.879999999999995,98,100,1.5,CA,2023-1-27
340,bantou,26.2151,117.4893,8.410000000000025,55,13,1.26,CN,2023-1-27
341,bochnia,49.9691,20.4303,4.230000000000018,88,70,2.99,PL,2023-1-27
342,lakes entrance,-37.8811,147.981,21.569999999999993,91,1,1.54,AU,2023-1-27
343,barceloneta,18.4505,-66.5385,26.120000000000005,99,48,2.72,PR,2023-1-27
344,kosh-agach,50.0,88.6667,-18.47,94,40,1.39,RU,2023-1-27
345,berbera,10.4396,45.0143,29.639999999999986,65,84,5.67,SO,2023-1-27
346,shellbrook,53.2168,-106.4011,-8.279999999999973,92,100,4.58,CA,2023-1-27
347,baker city,44.7749,-117.8344,4.6200000000000045,93,0,4.63,US,2023-1-27
348,sorland,67.667,12.6934,10.069999999999993,93,100,17.68,NO,2023-1-27
349,margate,51.3813,1.3862,10.759999999999991,72,56,2.68,GB,2023-1-27
350,whitehorse,60.7161,-135.0538,-6.420000000000016,92,0,0.0,CA,2023-1-27
351,katangli,51.7102,143.2326,-14.5,92,100,8.21,RU,2023-1-27
352,bubaque,11.2833,-15.8333,27.980000000000018,55,45,2.95,GW,2023-1-27
353,souillac,-20.5167,57.5167,32.360000000000014,70,75,3.6,MU,2023-1-27
354,asau,46.4333,26.4,0.660000000000025,88,100,2.54,RO,2023-1-27
355,sao jose da coroa grande,-8.8978,-35.1478,30.99000000000001,70,15,3.84,BR,2023-1-27
356,coihueco,-36.6167,-71.8333,15.480000000000018,54,0,1.36,CL,2023-1-27
357,arteaga,18.4667,-102.4167,17.870000000000005,39,0,1.03,MX,2023-1-27
358,zyryanka,65.75,150.85,-31.159999999999997,91,71,5.34,RU,2023-1-27
359,szank,46.5571,19.661,6.399999999999977,73,100,4.59,HU,2023-1-27
360,vestmanna,62.1564,-7.1664,8.660000000000025,75,100,10.8,FO,2023-1-27
361,morant bay,17.8815,-76.4093,25.769999999999982,78,63,3.78,JM,2023-1-27
362,biltine,14.5333,20.9167,37.120000000000005,8,0,0.64,TD,2023-1-27
363,santa cruz cabralia,-16.2781,-39.0247,29.279999999999973,83,40,2.06,BR,2023-1-27
364,kannangad,12.3081,75.1063,31.660000000000025,62,0,4.61,IN,2023-1-27
365,bilibino,68.0546,166.4372,-25.810000000000002,93,47,2.82,RU,2023-1-27
366,belyy yar,53.6039,91.3903,1.089999999999975,59,0,6.0,RU,2023-1-27
367,nelson bay,-32.7167,152.15,28.180000000000007,99,100,8.05,AU,2023-1-27
368,tucurui,-3.7661,-49.6725,26.5,94,98,0.93,BR,2023-1-27
369,santa maria,-29.6842,-53.8069,28.399999999999977,66,10,1.59,BR,2023-1-27
370,coxim,-18.5067,-54.76,27.980000000000018,87,67,1.06,BR,2023-1-27
371,aberdeen,57.1437,-2.0981,3.819999999999993,100,100,1.54,GB,2023-1-27
372,husavik,66.0449,-17.3389,2.8500000000000227,67,7,18.81,IS,2023-1-27
373,grand gaube,-20.0064,57.6608,32.370000000000005,83,100,1.79,MU,2023-1-27
374,bestobe,52.4994,73.0975,-5.720000000000027,79,56,10.14,KZ,2023-1-27
375,ilulissat,69.2167,-51.1,-9.839999999999975,61,20,11.32,GL,2023-1-27
376,vorobyevka,50.6451,40.9245,0.5500000000000114,73,2,2.39,RU,2023-1-27
377,polis,35.0367,32.4264,23.05000000000001,60,94,8.63,CY,2023-1-27
378,ferme-neuve,46.7001,-75.4493,-21.090000000000003,99,21,0.44,CA,2023-1-27
379,lerwick,60.1545,-1.1494,10.149999999999977,85,100,12.03,GB,2023-1-27
380,gushikawa,26.3544,127.8686,15.720000000000027,63,75,9.77,JP,2023-1-27
381,majdanpek,44.4277,21.946,3.2200000000000273,99,100,0.6,RS,2023-1-27
382,tosham,28.8833,75.9167,22.560000000000002,23,0,4.09,IN,2023-1-27
383,vostok,46.4856,135.8833,-28.110000000000014,99,85,1.64,RU,2023-1-27
384,avera,33.194,-82.5271,3.4599999999999795,77,9,3.4,US,2023-1-27
385,tripoli,32.8752,13.1875,16.720000000000027,58,56,9.18,LY,2023-1-27
386,eureka,40.8021,-124.1637,7.490000000000009,78,4,1.37,US,2023-1-27
387,xuddur,4.1213,43.8894,36.52999999999997,19,44,7.72,SO,2023-1-27
388,bandipur,27.9333,84.4167,26.180000000000007,22,8,2.92,NP,2023-1-27
389,portland,45.5234,-122.6762,9.930000000000007,93,100,4.92,US,2023-1-27
390,mayya,61.7333,130.2811,-42.78999999999999,100,90,1.4,RU,2023-1-27
391,amga,60.8953,131.9608,-34.84,99,100,0.85,RU,2023-1-27
392,lata,40.1629,-8.3327,11.519999999999982,61,0,2.18,PT,2023-1-27
393,hudson bay,52.85,-102.3842,-13.480000000000018,88,81,3.41,CA,2023-1-27
394,sawakin,19.1059,37.3321,28.44999999999999,59,80,4.95,SD,2023-1-27
395,general roca,-39.0333,-67.5833,23.55000000000001,28,0,4.48,AR,2023-1-27
396,kasempa,-13.4584,25.8338,26.149999999999977,84,79,4.54,ZM,2023-1-27
397,malatya,38.5,38.0,2.180000000000007,80,100,1.54,TR,2023-1-27
398,grand bank,47.0999,-55.765,7.149999999999977,79,81,12.23,CA,2023-1-27
399,rengo,-34.4167,-70.8667,20.329999999999984,43,0,0.59,CL,2023-1-27
400,tete,-16.1564,33.5867,35.19999999999999,51,40,2.06,MZ,2023-1-27
401,dohrighat,26.2644,83.5164,27.939999999999998,48,5,5.27,IN,2023-1-27
402,juneau,58.3019,-134.4197,7.7099999999999795,100,100,0.0,US,2023-1-27
403,savannakhet,16.566,104.751,27.160000000000025,46,40,3.09,LA,2023-1-27
404,fuengirola,36.54,-4.6247,15.29000000000002,46,0,9.26,ES,2023-1-27
405,brownsville,25.9018,-97.4975,19.20999999999998,76,100,2.06,US,2023-1-27
406,vanimo,-2.6741,141.3028,29.360000000000014,85,67,2.95,PG,2023-1-27
407,marks,51.7111,46.7486,-2.6499999999999773,86,100,2.45,RU,2023-1-27
408,mutoko,-17.397,32.2268,30.230000000000018,43,46,1.88,ZW,2023-1-27
409,rupert,42.6191,-113.6772,6.1200000000000045,70,100,6.17,US,2023-1-27
410,kendari,-3.945,122.4989,28.99000000000001,84,89,1.11,ID,2023-1-27
411,krasnokamensk,50.0979,118.0369,-28.120000000000005,100,61,0.72,RU,2023-1-27
412,wattegama,6.7989,81.4808,28.069999999999993,79,100,3.49,LK,2023-1-27
413,srivardhan,18.0333,73.0167,29.980000000000018,54,0,4.31,IN,2023-1-27
414,petatlan,17.5167,-101.2667,24.079999999999984,59,0,1.37,MX,2023-1-27
415,surovatikha,55.7652,43.8984,-0.589999999999975,94,100,4.6,RU,2023-1-27
416,sovetskiy,61.3614,63.5842,-3.519999999999982,93,72,2.33,RU,2023-1-27
417,mayumba,-3.432,10.6554,27.939999999999998,85,100,3.77,GA,2023-1-27
418,benicarlo,40.4165,0.4271,13.839999999999975,45,17,6.49,ES,2023-1-27
419,kunzelsau,49.2819,9.6889,4.6200000000000045,93,100,3.09,DE,2023-1-27
420,bintulu,3.1667,113.0333,30.379999999999995,89,20,1.54,MY,2023-1-27
421,bitkine,11.9801,18.2138,39.04000000000002,8,31,2.39,TD,2023-1-27
422,aripuana,-9.1667,-60.6333,25.29000000000002,93,100,0.17,BR,2023-1-27
423,along,28.1667,94.7667,23.170000000000016,55,62,0.47,IN,2023-1-27
424,vila franca do campo,37.7167,-25.4333,16.379999999999995,74,50,3.74,PT,2023-1-27
425,gambiran,-6.7988,111.4951,28.029999999999973,89,100,2.33,ID,2023-1-27
426,kalmunai,7.4167,81.8167,28.269999999999982,83,100,4.19,LK,2023-1-27
427,obala,4.1667,11.5333,36.85000000000002,33,61,1.81,CM,2023-1-27
428,fort nelson,58.8053,-122.7002,-11.079999999999984,85,100,3.09,CA,2023-1-27
429,zhigalovo,54.8097,105.1578,-4.100000000000023,83,100,2.86,RU,2023-1-27
430,moranbah,-22.0016,148.0466,28.310000000000002,82,93,7.29,AU,2023-1-27
431,kushima,31.4583,131.2333,5.839999999999975,64,38,5.79,JP,2023-1-27
432,kudahuvadhoo,2.6708,72.8944,30.44999999999999,75,69,3.39,MV,2023-1-27
433,yara,20.2753,-76.9533,22.20999999999998,94,52,2.03,CU,2023-1-27
434,taoudenni,22.6783,-3.9836,19.370000000000005,17,0,3.92,ML,2023-1-27
435,tuatapere,-46.1333,167.6833,11.800000000000011,80,2,0.4,NZ,2023-1-27
436,wahiawa,21.5028,-158.0236,23.079999999999984,71,0,4.12,US,2023-1-27
437,zhezkazgan,47.8043,67.7144,-10.860000000000014,85,0,2.0,KZ,2023-1-27
438,huntsville,34.7304,-86.5861,2.1200000000000045,91,0,0.89,US,2023-1-27
439,sovetskoye,52.2861,85.4131,-9.279999999999973,87,23,2.34,RU,2023-1-27
440,emerald,-23.5333,148.1667,30.819999999999993,66,95,7.58,AU,2023-1-27
441,sept-iles,50.2001,-66.3821,-7.930000000000007,70,100,4.12,CA,2023-1-27
442,barra do corda,-5.5,-45.25,26.70999999999998,91,84,0.88,BR,2023-1-27
443,itarema,-2.9248,-39.9167,29.05000000000001,76,87,2.92,BR,2023-1-27
444,tutoia,-2.7619,-42.2744,28.670000000000016,83,100,4.2,BR,2023-1-27
445,bonga,7.2833,36.2333,31.00999999999999,32,54,1.28,ET,2023-1-27
446,moskovskiy,55.5991,37.355,1.4700000000000273,88,100,6.0,RU,2023-1-27
447,port said,31.2565,32.2841,23.899999999999977,46,50,4.22,EG,2023-1-27
448,tawang,27.5833,91.8667,9.930000000000007,73,21,1.86,IN,2023-1-27
449,christchurch,-43.5333,172.6333,18.660000000000025,84,75,6.17,NZ,2023-1-27
450,madimba,-10.4,40.3333,32.370000000000005,71,100,6.16,TZ,2023-1-27
451,smithers,54.7804,-127.1743,5.329999999999984,93,40,2.06,CA,2023-1-27
452,hambantota,6.1241,81.1185,30.04000000000002,72,100,3.9,LK,2023-1-27
453,wanning,18.8003,110.3967,19.629999999999995,79,100,8.53,CN,2023-1-27
454,upata,8.0086,-62.3989,23.25999999999999,94,67,1.58,VE,2023-1-27
455,teya,60.3778,92.6267,-6.399999999999977,87,100,4.85,RU,2023-1-27
456,tucuma,-0.1833,-50.05,26.680000000000007,94,99,2.66,BR,2023-1-27
457,den helder,52.9599,4.7593,8.139999999999986,72,100,6.26,NL,2023-1-27
458,osmena,10.5208,119.9258,29.379999999999995,85,51,5.88,PH,2023-1-27
459,dutse,11.7594,9.3392,36.74000000000001,8,5,2.32,NG,2023-1-27
460,maneromango,-7.1988,38.7848,33.170000000000016,52,100,3.95,TZ,2023-1-27
461,villa carlos paz,-31.4241,-64.4978,26.980000000000018,49,5,1.79,AR,2023-1-27
462,riyadh,24.6877,46.7219,20.230000000000018,42,4,3.31,SA,2023-1-27
463,erzin,36.9559,36.2,18.899999999999977,36,43,2.25,TR,2023-1-27
464,lae,-6.7221,146.9847,29.060000000000002,85,63,1.55,PG,2023-1-27
465,pozo colorado,-23.4923,-58.7972,31.360000000000014,59,57,2.38,PY,2023-1-27
466,charters towers,-20.1,146.2667,29.360000000000014,78,65,5.8,AU,2023-1-27
467,qaqortoq,60.7167,-46.0333,-5.279999999999973,67,100,8.9,GL,2023-1-27
468,dhamtari,20.7072,81.5497,34.870000000000005,14,2,3.93,IN,2023-1-27
469,karaton,-6.3424,106.1045,27.670000000000016,91,100,2.0,ID,2023-1-27
470,labytnangi,66.6572,66.4183,-4.8799999999999955,88,22,5.98,RU,2023-1-27
471,augusto correa,-1.0217,-46.635,26.279999999999973,97,100,2.28,BR,2023-1-27
472,dunedin,-45.8742,170.5036,16.370000000000005,75,38,3.59,NZ,2023-1-27
473,umm lajj,25.0213,37.2685,28.180000000000007,50,1,6.08,SA,2023-1-27
474,puksoozero,62.5903,40.6066,-5.300000000000011,96,99,2.69,RU,2023-1-27
475,przasnysz,53.0191,20.8803,3.920000000000016,82,99,3.36,PL,2023-1-27
476,kargasok,59.0556,80.8572,-3.1299999999999955,91,99,5.44,RU,2023-1-27
477,yairipok,24.6667,94.0667,24.920000000000016,35,39,1.61,IN,2023-1-27
478,touba,8.2833,-7.6833,34.879999999999995,44,45,1.51,CI,2023-1-27
479,pontianak,-0.0333,109.3333,30.139999999999986,83,20,2.57,ID,2023-1-27
480,sokoto,13.0609,5.239,38.04000000000002,7,5,4.28,NG,2023-1-27
481,santiago del estero,-27.7951,-64.2615,31.75999999999999,56,30,3.61,AR,2023-1-27
482,sao joao da barra,-21.6403,-41.0511,29.19999999999999,86,46,2.43,BR,2023-1-27
483,thunder bay,48.4001,-89.3168,-3.8600000000000136,73,100,2.57,CA,2023-1-27
484,shimoda,34.6667,138.95,5.990000000000009,77,80,8.52,JP,2023-1-27
485,mount pleasant,32.7941,-79.8626,6.480000000000018,80,0,0.45,US,2023-1-27
486,shelburne,44.0787,-80.2041,0.39999999999997726,97,95,2.43,CA,2023-1-27
487,komsomolskiy,40.4272,71.7189,5.550000000000011,48,99,2.06,UZ,2023-1-27
488,matelandia,-25.2408,-53.9964,26.50999999999999,52,16,2.0,BR,2023-1-27
489,flin flon,54.7682,-101.865,-16.039999999999992,93,100,4.54,CA,2023-1-27
490,baykit,61.67,96.37,-7.970000000000027,95,100,2.08,RU,2023-1-27
491,swan river,52.1058,-101.2676,-9.910000000000025,78,78,3.6,CA,2023-1-27
492,stromness,58.965,-3.296,9.189999999999998,85,100,8.49,GB,2023-1-27
493,naples,40.8333,14.25,15.699999999999989,63,40,3.6,IT,2023-1-27
494,oktyabrskiy,54.4815,53.471,-3.069999999999993,85,84,6.0,RU,2023-1-27
495,tarata,-17.6167,-66.0167,17.079999999999984,73,100,1.63,BO,2023-1-27
496,vanavara,60.34,102.2797,-6.100000000000023,92,100,4.39,RU,2023-1-27
497,acarau,-2.8856,-40.12,28.54000000000002,79,75,2.96,BR,2023-1-27
498,grand forks,47.9417,-97.4337,-6.0,79,100,13.89,US,2023-1-27
499,najran,17.4924,44.1277,22.50999999999999,56,93,6.38,SA,2023-1-27
500,healesville,-37.65,145.5167,25.160000000000025,71,0,0.95,AU,2023-1-27
501,tongchuan,35.0806,109.0897,-0.5099999999999909,28,0,0.67,CN,2023-1-27
502,berdigestyakh,62.0989,126.6992,-42.879999999999995,100,50,0.65,RU,2023-1-27
503,ust-omchug,61.15,149.6333,-34.22,99,34,1.57,RU,2023-1-27
504,cockburn town,21.4612,-71.1419,28.04000000000002,76,0,6.81,TC,2023-1-27
505,iroquois falls,48.7669,-80.6831,-24.169999999999987,100,65,1.84,CA,2023-1-27
506,gat,31.61,34.7642,29.529999999999973,24,6,4.36,IL,2023-1-27
507,morondava,-20.2833,44.2833,30.480000000000018,85,100,11.72,MG,2023-1-27
508,fairbanks,64.8378,-147.7164,-15.870000000000005,77,0,0.0,US,2023-1-27
509,caramay,10.1815,119.236,28.810000000000002,88,77,2.32,PH,2023-1-27
510,veracruz,19.3333,-96.6667,17.74000000000001,81,73,0.97,MX,2023-1-27
511,sumenep,-7.0167,113.8667,28.579999999999984,89,100,3.1,ID,2023-1-27
512,karoi,-16.8099,29.6925,26.870000000000005,64,100,2.56,ZW,2023-1-27
513,porto novo,6.4965,2.6036,34.05000000000001,55,91,4.14,BJ,2023-1-27
514,ranfurly,-45.1333,170.1,14.319999999999993,86,91,1.66,NZ,2023-1-27
515,raahe,64.6833,24.4833,0.19999999999998863,82,39,8.04,FI,2023-1-27
516,abha,18.2164,42.5053,22.05000000000001,42,20,7.2,SA,2023-1-27
517,plouzane,48.3833,-4.6167,10.329999999999984,70,100,4.12,FR,2023-1-27
518,weligama,5.9667,80.4167,28.360000000000014,77,100,0.59,LK,2023-1-27
519,chimbote,-9.0853,-78.5783,23.69999999999999,81,91,1.54,PE,2023-1-27
520,valparaiso,-33.0393,-71.6273,18.970000000000027,100,0,2.57,CL,2023-1-27
521,mapiripan,2.8892,-72.1256,24.060000000000002,72,54,2.0,CO,2023-1-27
522,tucuman,-26.8241,-65.2226,29.149999999999977,73,0,1.03,AR,2023-1-27
523,ahuimanu,21.4447,-157.8378,24.74000000000001,74,20,2.57,US,2023-1-27
524,markova,48.6758,24.4138,2.180000000000007,81,100,2.29,UA,2023-1-27
525,qingyuan,23.7,113.0333,14.139999999999986,54,100,3.26,CN,2023-1-27
526,homer,59.6425,-151.5483,1.089999999999975,86,20,0.0,US,2023-1-27
527,santa rosa,14.3122,121.1114,29.139999999999986,80,100,4.58,PH,2023-1-27
528,zhangye,38.9342,100.4517,-4.899999999999977,43,10,0.78,CN,2023-1-27
529,kautokeino,69.0125,23.0412,-0.08999999999997499,75,100,8.03,NO,2023-1-27
530,pombia,45.653,8.6336,7.740000000000009,70,75,2.24,IT,2023-1-27
531,lalmohan,22.3384,90.7419,29.730000000000018,43,17,5.11,BD,2023-1-27
532,evans,33.5337,-82.1307,5.949999999999989,72,0,2.57,US,2023-1-27
533,klyuchi,52.2667,79.1667,-4.949999999999989,82,41,7.56,RU,2023-1-27
534,inhambane,-23.865,35.3833,35.139999999999986,51,40,7.2,MZ,2023-1-27
535,shatrovo,56.5167,64.6333,-1.579999999999984,93,100,5.22,RU,2023-1-27
536,buala,-8.145,159.5921,29.470000000000027,81,86,1.74,SB,2023-1-27
537,carballo,43.213,-8.691,14.680000000000007,78,98,4.36,ES,2023-1-27
538,chinna salem,11.65,78.9,32.910000000000025,39,8,4.33,IN,2023-1-27
539,kidal,18.4411,1.4078,27.649999999999977,12,72,4.54,ML,2023-1-27
540,namatanai,-3.6667,152.4333,29.870000000000005,78,59,3.07,PG,2023-1-27
541,dzhebariki-khaya,62.2167,135.8,-36.650000000000006,100,100,0.07,RU,2023-1-27
542,zaysan,47.4667,84.8667,-16.099999999999994,98,97,0.99,KZ,2023-1-27
543,bathurst,-33.4166,149.5806,24.24000000000001,81,64,4.51,AU,2023-1-27
544,saint anthony,45.0205,-93.218,2.6100000000000136,93,100,5.66,US,2023-1-27
545,milkovo,54.7167,158.6167,-11.259999999999991,97,100,0.87,RU,2023-1-27
546,rongcheng,30.634,117.8517,4.300000000000011,45,27,1.33,CN,2023-1-27
547,bundaberg,-24.85,152.35,28.269999999999982,91,73,0.45,AU,2023-1-27
548,ascension,30.2169,-90.9001,5.410000000000025,87,0,0.0,US,2023-1-27
549,pouembout,-21.1333,164.9,27.99000000000001,90,69,2.49,NC,2023-1-27
550,marsa matruh,31.3525,27.2453,21.819999999999993,60,100,6.32,EG,2023-1-27
551,san juan,-31.5375,-68.5364,25.879999999999995,67,6,8.34,AR,2023-1-27
552,padang,-0.9492,100.3543,26.180000000000007,85,95,1.54,ID,2023-1-27
553,salo,45.6086,10.531,10.300000000000011,75,81,1.9,IT,2023-1-27
554,atambua,-9.1061,124.8925,28.00999999999999,82,69,0.31,ID,2023-1-27
555,stettler,52.3168,-112.7186,4.009999999999991,93,100,6.69,CA,2023-1-27
556,blairmore,49.6,-114.4353,4.920000000000016,69,98,5.14,CA,2023-1-27
557,peplos,40.9583,26.2656,12.740000000000009,84,100,3.51,GR,2023-1-27
558,tura,25.5198,90.2201,26.49000000000001,43,67,1.23,IN,2023-1-27
559,quebec,46.8123,-71.2145,-8.660000000000025,79,20,7.2,CA,2023-1-27
560,kandi,11.1342,2.9386,38.160000000000025,8,84,1.86,BJ,2023-1-27
561,lodja,-3.4833,23.4333,37.94999999999999,37,92,0.75,CD,2023-1-27
